[
 {
  "name": "U.G.サトー『くっくっくっ、くつ』",
  "lat": 36.3504842,
  "lng": 140.3060536,
  "address": "茨城県笠間市友部駅前１",
  "access": "友部駅南口付近",
  "categories": [
   "駅前"
  ],
  "image": "https://www.memorial-object.jp/wp-content/uploads/2026/05/00087_1.png",
  "url": "https://www.memorial-object.jp/00087/"
 },
 {
  "name": "『C57蒸気機関車の動輪』",
  "lat": 36.3743272725551,
  "lng": 139.84152947341823,
  "address": "栃木県下野市小金井",
  "access": "小金井駅西口出てすぐ",
  "categories": [
   "駅前"
  ],
  "image": "https://www.memorial-object.jp/wp-content/uploads/2026/01/00044_c57dorin3.png",
  "url": "https://www.memorial-object.jp/00044_c57dorin/"
 },
 {
  "name": "『EYE & 愛（鬼太郎 & 目玉おやじ）』",
  "lat": 36.07792541650547,
  "lng": 140.2048570286891,
  "address": "茨城県土浦市有明町１",
  "access": "土浦駅西口徒歩１分",
  "categories": [
   "駅前"
  ],
  "image": "https://www.memorial-object.jp/wp-content/uploads/2026/03/00074_eyeandlove4.png",
  "url": "https://www.memorial-object.jp/00074_eyeandlove/"
 },
 {
  "name": "『うねりの広場　〜「酒島（さけしま）の霊泉」より第二場面～』",
  "lat": 36.00792413449137,
  "lng": 140.1585160654406,
  "address": "茨城県牛久市ひたち野西３丁目 ひたち野うしく駅",
  "access": "ひたち野うしく駅東口徒歩１分",
  "categories": [
   "駅前"
  ],
  "image": "https://www.memorial-object.jp/wp-content/uploads/2026/03/00071_sakeshima2-5.png",
  "url": "https://www.memorial-object.jp/00071_sakeshima2/"
 },
 {
  "name": "『かえるの像』",
  "lat": 36.55917285506963,
  "lng": 139.8974820485269,
  "address": "栃木県宇都宮市駅前通り３丁目 １",
  "access": "宇都宮駅西口出てすぐ（ペデストリアンデッキ上）",
  "categories": [
   "駅前"
  ],
  "image": "https://www.memorial-object.jp/wp-content/uploads/2026/02/00050_frog8.png",
  "url": "https://www.memorial-object.jp/00050_utsunomiyafrog/"
 },
 {
  "name": "『くるりん』",
  "lat": 35.69882046748666,
  "lng": 139.4132298720476,
  "address": "東京都立川市柴崎町３丁目２−２",
  "access": "立川駅北上出てすぐ",
  "categories": [
   "駅前"
  ],
  "image": "https://www.memorial-object.jp/wp-content/uploads/2026/06/00121_1.png",
  "url": "https://www.memorial-object.jp/00121/"
 },
 {
  "name": "『さいたまの譜』",
  "lat": 35.85850581516036,
  "lng": 139.65632173780276,
  "address": "埼玉県さいたま市浦和区高砂１丁目１１",
  "access": "浦和駅西口徒歩１分（中ノ島バスターミナル内）",
  "categories": [
   "駅前"
  ],
  "image": "https://www.memorial-object.jp/wp-content/uploads/2025/09/urawa-saitamanouta1-1024x605.png",
  "url": "https://www.memorial-object.jp/saitamanouta_00005/"
 },
 {
  "name": "『しあわせ地蔵』",
  "lat": 35.7002573,
  "lng": 139.507063,
  "address": "東京都小金井市本町６丁目１４−３３",
  "access": "武蔵小金井駅南口出てすぐ",
  "categories": [
   "駅前"
  ],
  "image": "https://www.memorial-object.jp/wp-content/uploads/2026/06/00115_1.png",
  "url": "https://www.memorial-object.jp/00115/"
 },
 {
  "name": "『しおの山と塩山の地名の由来について』",
  "lat": 35.70570228366036,
  "lng": 138.73432604262797,
  "address": "山梨県甲州市塩山上於曽",
  "access": "塩山駅北口付近",
  "categories": [
   "駅前"
  ],
  "image": "https://www.memorial-object.jp/wp-content/uploads/2026/07/00137_1.png",
  "url": "https://www.memorial-object.jp/00137/"
 },
 {
  "name": "『たびだち』",
  "lat": 36.4296464,
  "lng": 140.5400125,
  "address": "茨城県ひたちなか市高場",
  "access": "佐和駅西口付近",
  "categories": [
   "駅前"
  ],
  "image": "https://www.memorial-object.jp/wp-content/uploads/2026/06/00096_1.png",
  "url": "https://www.memorial-object.jp/00096/"
 },
 {
  "name": "『ひな人形と花のまち こうのす』",
  "lat": 36.103900998278355,
  "lng": 139.4520152695961,
  "address": "埼玉県鴻巣市吹上本町４丁目２",
  "access": "吹上駅北口出てすぐ",
  "categories": [
   "駅前"
  ],
  "image": "https://www.memorial-object.jp/wp-content/uploads/2025/11/fukiage_hinahana1.png",
  "url": "https://www.memorial-object.jp/00014_hinahana_fukiage/"
 },
 {
  "name": "『ひな人形と花のまち こうのす』",
  "lat": 36.085870998278715,
  "lng": 139.4765502695961,
  "address": "埼玉県鴻巣市赤見台１丁目５",
  "access": "北鴻巣駅東口出てすぐ",
  "categories": [
   "駅前"
  ],
  "image": "https://www.memorial-object.jp/wp-content/uploads/2025/11/kitakounosu_hinahana3.png",
  "url": "https://www.memorial-object.jp/00013_hinahana_kitakonosu/"
 },
 {
  "name": "『ひな人形と花のまち こうのす』",
  "lat": 36.059293168778446,
  "lng": 139.50988426660015,
  "address": "埼玉県鴻巣市本町１丁目２−３９",
  "access": "鴻巣駅東口出てすぐ",
  "categories": [
   "駅前"
  ],
  "image": "https://www.memorial-object.jp/wp-content/uploads/2025/11/kounosu_hinahana3.png",
  "url": "https://www.memorial-object.jp/00012_hinahana_konosu/"
 },
 {
  "name": "『ほたて観音』",
  "lat": 41.12237295177257,
  "lng": 141.25646298061483,
  "address": "青森県上北郡横浜町稲荷平",
  "access": "JR大湊線 有畑駅徒歩25分",
  "categories": [
   "海浜"
  ],
  "image": "https://www.memorial-object.jp/wp-content/uploads/2025/11/mutsuyokohama_hotate4.png",
  "url": "https://www.memorial-object.jp/hotatekannon_00017/"
 },
 {
  "name": "『まちのかけはし』",
  "lat": 36.3814408,
  "lng": 140.4155275,
  "address": "茨城県水戸市河和田１丁目",
  "access": "赤塚駅南口出てすぐ",
  "categories": [
   "駅前"
  ],
  "image": "https://www.memorial-object.jp/wp-content/uploads/2026/05/00089_1.png",
  "url": "https://www.memorial-object.jp/00089/"
 },
 {
  "name": "『やすらぎ』",
  "lat": 35.93167589570637,
  "lng": 139.63218611595389,
  "address": "埼玉県さいたま市北区土呂町１丁目 土呂駅",
  "access": "土呂駅東口出てすぐ",
  "categories": [
   "駅前"
  ],
  "image": "https://www.memorial-object.jp/wp-content/uploads/2025/12/00032_yasuragi7.png",
  "url": "https://www.memorial-object.jp/00032_yasuragi/"
 },
 {
  "name": "『わたしたち笠間市民の願い　-笠間市民憲章-』",
  "lat": 36.3504842,
  "lng": 140.3060536,
  "address": "茨城県笠間市友部駅前１",
  "access": "友部駅北口付近",
  "categories": [
   "駅前"
  ],
  "image": "https://www.memorial-object.jp/wp-content/uploads/2026/05/00086_1.png",
  "url": "https://www.memorial-object.jp/00086/"
 },
 {
  "name": "『グリムの里いしばし』",
  "lat": 36.4366333740649,
  "lng": 139.8661620503824,
  "address": "栃木県下野市石橋",
  "access": "石橋駅西口出てすぐ",
  "categories": [
   "公園",
   "駅前"
  ],
  "image": "https://www.memorial-object.jp/wp-content/uploads/2026/01/00047_grimm11.png",
  "url": "https://www.memorial-object.jp/00047_grimm/"
 },
 {
  "name": "『テラコッタの甕』",
  "lat": 35.97571750181272,
  "lng": 140.14130337620207,
  "address": "茨城県牛久市中央５丁目",
  "access": "牛久駅東口徒歩１分",
  "categories": [
   "商業施設",
   "広場・通り",
   "駅前"
  ],
  "image": "https://www.memorial-object.jp/wp-content/uploads/2026/03/00069_terracotta4.png",
  "url": "https://www.memorial-object.jp/00069_terracotta/"
 },
 {
  "name": "『パークシティ鴻巣　市制３０周年記念』",
  "lat": 36.08591099827872,
  "lng": 139.47620326959608,
  "address": "埼玉県鴻巣市赤見台１丁目５",
  "access": "北鴻巣駅東口出てすぐ",
  "categories": [
   "公園",
   "駅前"
  ],
  "image": "https://www.memorial-object.jp/wp-content/uploads/2025/11/kitakounosu_parkcity5.png",
  "url": "https://www.memorial-object.jp/00015_parkcitykonosu30th/"
 },
 {
  "name": "『マルベリーブリッジ（桑の橋）』",
  "lat": 35.6567569,
  "lng": 139.3392077,
  "address": "東京都八王子市旭町１−１",
  "access": "八王子駅北↑出てすぐ",
  "categories": [
   "駅前"
  ],
  "image": "https://www.memorial-object.jp/wp-content/uploads/2026/06/00128_1.png",
  "url": "https://www.memorial-object.jp/00128/"
 },
 {
  "name": "『マーキュリー像』",
  "lat": 36.18997699827673,
  "lng": 140.27983026959492,
  "address": "茨城県石岡市国府１丁目１−２２",
  "access": "石岡駅西口徒歩１分",
  "categories": [
   "公園",
   "駅前"
  ],
  "image": "https://www.memorial-object.jp/wp-content/uploads/2026/04/00080_mercury6.png",
  "url": "https://www.memorial-object.jp/00080_mercury/"
 },
 {
  "name": "『一番星見つけた。』",
  "lat": 35.67327573815323,
  "lng": 138.6591547436679,
  "address": "山梨県笛吹市春日居町別田",
  "access": "春日居町駅南口付近",
  "categories": [
   "駅前"
  ],
  "image": "https://www.memorial-object.jp/wp-content/uploads/2026/07/00143_1.png",
  "url": "https://www.memorial-object.jp/00143/"
 },
 {
  "name": "『上毛三山と太陽の時計塔』",
  "lat": 36.32209199827419,
  "lng": 139.01355326959677,
  "address": "群馬県高崎市栄町１６",
  "access": "高崎駅東口徒歩２分",
  "categories": [
   "駅前"
  ],
  "image": "https://www.memorial-object.jp/wp-content/uploads/2025/12/00023_3jomo2.png",
  "url": "https://www.memorial-object.jp/00023_jomo3/"
 },
 {
  "name": "『世界連邦平和宣言都市』",
  "lat": 35.701427699999996,
  "lng": 139.50639139999998,
  "address": "東京都小金井市本町５丁目１２−１２",
  "access": "武蔵小金井駅北口出てすぐ",
  "categories": [
   "駅前"
  ],
  "image": "https://www.memorial-object.jp/wp-content/uploads/2026/06/00114_1.png",
  "url": "https://www.memorial-object.jp/00114/"
 },
 {
  "name": "『中央線 降雨防災の碑』",
  "lat": 35.6717358,
  "lng": 138.7429506,
  "address": "山梨県甲州市勝沼町菱山３０６０",
  "access": "勝沼ぶどう郷駅西口出てすぐ",
  "categories": [
   "駅前"
  ],
  "image": "https://www.memorial-object.jp/wp-content/uploads/2026/07/00135_1.png",
  "url": "https://www.memorial-object.jp/00135/"
 },
 {
  "name": "『井の頭自然文化園で愛された ゾウのはな子』",
  "lat": 35.7035833,
  "lng": 139.5803798,
  "address": "東京都武蔵野市吉祥寺本町１丁目１５−１５",
  "access": "吉祥寺駅北口出てすぐ",
  "categories": [
   "駅前"
  ],
  "image": "https://www.memorial-object.jp/wp-content/uploads/2026/06/00111_4-199x300.png",
  "url": "https://www.memorial-object.jp/00110/"
 },
 {
  "name": "『交通安全』",
  "lat": 36.23065399827594,
  "lng": 139.73381826959505,
  "address": "栃木県下都賀郡野木町丸林３９３−１",
  "access": "野木駅西口徒歩１分",
  "categories": [
   "商業施設",
   "広場・通り",
   "駅前"
  ],
  "image": "https://www.memorial-object.jp/wp-content/uploads/2026/01/00040_kotsuanzen2.png",
  "url": "https://www.memorial-object.jp/00040_kotsuanzen/"
 },
 {
  "name": "『交通安全宣言都市』",
  "lat": 35.704403,
  "lng": 139.636553,
  "address": "東京都杉並区阿佐谷南３丁目３６",
  "access": "阿佐ヶ谷駅南口出てすぐ",
  "categories": [
   "駅前"
  ],
  "image": "https://www.memorial-object.jp/wp-content/uploads/2026/06/00108_1.png",
  "url": "https://www.memorial-object.jp/00108/"
 },
 {
  "name": "『八兵衛さんの広場　〜「酒島（さけしま）の霊泉」より第一場面～』",
  "lat": 36.00757353030815,
  "lng": 140.15835453820475,
  "address": "茨城県牛久市ひたち野東１丁目",
  "access": "ひたち野うしく駅東口出てすぐ",
  "categories": [
   "駅前"
  ],
  "image": "https://www.memorial-object.jp/wp-content/uploads/2026/03/00070_sakeshima1-3.png",
  "url": "https://www.memorial-object.jp/00070_sakeshima1/"
 },
 {
  "name": "『北上尾駅西口駅前広場竣功記念』",
  "lat": 35.98560432763341,
  "lng": 139.5766756335013,
  "address": "埼玉県上尾市中妻１丁目",
  "access": "北上尾駅西口を出てすぐ（出口の横）",
  "categories": [
   "駅前"
  ],
  "image": "https://www.memorial-object.jp/wp-content/uploads/2025/11/kitaageo_shunko2-1024x678.png",
  "url": "https://www.memorial-object.jp/00011_kitaageo-square-completed/"
 },
 {
  "name": "『南飯田神田囃子』",
  "lat": 36.25801672569218,
  "lng": 139.76074173545945,
  "address": "栃木県小山市暁２丁目１４",
  "access": "間々田駅東口徒歩１分（ロータリー内）",
  "categories": [
   "駅前"
  ],
  "image": "https://www.memorial-object.jp/wp-content/uploads/2026/01/00042_oyama-hayashi5.png",
  "url": "https://www.memorial-object.jp/00042_oyama-hayashi/"
 },
 {
  "name": "『大地のシンフォニー “豊穣への祈り”』",
  "lat": 35.6853501,
  "lng": 138.6834608,
  "address": "山梨県山梨市上神内川７４−５",
  "access": "山梨市駅北口出てすぐ",
  "categories": [
   "駅前"
  ],
  "image": "https://www.memorial-object.jp/wp-content/uploads/2026/07/00141_1.png",
  "url": "https://www.memorial-object.jp/00141/"
 },
 {
  "name": "『天地人／橋上駅竣工記念碑』",
  "lat": 35.97580899828086,
  "lng": 140.1407452695943,
  "address": "茨城県牛久市中央５丁目",
  "access": "牛久駅東口徒歩１分",
  "categories": [
   "駅前"
  ],
  "image": "https://www.memorial-object.jp/wp-content/uploads/2026/03/00067_tenchijin4.png",
  "url": "https://www.memorial-object.jp/00067_tenchijin/"
 },
 {
  "name": "『天平人の夢』",
  "lat": 35.6988027,
  "lng": 139.4655589,
  "address": "東京都国分寺市泉町３丁目３６",
  "access": "西国分寺駅南口出てすぐ",
  "categories": [
   "広場・通り",
   "駅前"
  ],
  "image": "https://www.memorial-object.jp/wp-content/uploads/2026/06/00117_4-300x198.png",
  "url": "https://www.memorial-object.jp/00117/"
 },
 {
  "name": "『太陽の広場と噴水彫刻』",
  "lat": 36.37874999827316,
  "lng": 139.04698426959544,
  "address": "群馬県前橋市新前橋町２４",
  "access": "新前橋駅東口徒歩１分",
  "categories": [
   "商業施設",
   "広場・通り",
   "駅前"
  ],
  "image": "https://www.memorial-object.jp/wp-content/uploads/2025/12/00026_shinmaebashifunsui2.png",
  "url": "https://www.memorial-object.jp/00026_shinmaebashi_fountain/"
 },
 {
  "name": "『山本周五郎 文学碑』",
  "lat": 35.594864600679124,
  "lng": 138.88367024201082,
  "address": "山梨県大月市初狩町下初狩",
  "access": "初狩駅北口出てすぐ",
  "categories": [
   "駅前"
  ],
  "image": "https://www.memorial-object.jp/wp-content/uploads/2026/06/00132_1.png",
  "url": "https://www.memorial-object.jp/00132/"
 },
 {
  "name": "『山県大弐像とさすり石』",
  "lat": 35.668499439337204,
  "lng": 138.5195437590702,
  "address": "山梨県甲斐市竜王新町",
  "access": "竜王駅南口付近",
  "categories": [
   "駅前"
  ],
  "image": "https://www.memorial-object.jp/wp-content/uploads/2026/07/00152_1.png",
  "url": "https://www.memorial-object.jp/00152/"
 },
 {
  "name": "『希望』",
  "lat": 35.77855989828471,
  "lng": 139.71613176959505,
  "address": "東京都北区赤羽台１丁目２−４",
  "access": "赤羽駅西口徒歩６分",
  "categories": [
   "住宅地"
  ],
  "image": "https://www.memorial-object.jp/wp-content/uploads/2025/10/akabanedai_kibou6.png",
  "url": "https://www.memorial-object.jp/kibou_00007/"
 },
 {
  "name": "『平和の塔』",
  "lat": 36.93163573527788,
  "lng": 140.02127356381297,
  "address": "栃木県那須塩原市大原間５６１ 那須塩原駅",
  "access": "那須塩原駅東口出てすぐ",
  "categories": [
   "駅前"
  ],
  "image": "https://www.memorial-object.jp/wp-content/uploads/2026/02/0005_heiwa2.png",
  "url": "https://www.memorial-object.jp/00055_heiwa/"
 },
 {
  "name": "『平和像／平和の女神』",
  "lat": 35.70311499828629,
  "lng": 139.56032626959336,
  "address": "東京都三鷹市下連雀３丁目４６−１",
  "access": "三鷹駅北口付近",
  "categories": [
   "駅前"
  ],
  "image": "https://www.memorial-object.jp/wp-content/uploads/2026/06/00113_1.png",
  "url": "https://www.memorial-object.jp/00113/"
 },
 {
  "name": "『新白岡駅開業記念』",
  "lat": 36.038727998279604,
  "lng": 139.67186726959443,
  "address": "埼玉県白岡市新白岡４丁目",
  "access": "新白岡駅東口徒歩１分（※接近困難）",
  "categories": [
   "駅前"
  ],
  "image": "https://www.memorial-object.jp/wp-content/uploads/2025/12/00035_shinshiraoka1.png",
  "url": "https://www.memorial-object.jp/00035_shinshiraoka/"
 },
 {
  "name": "『新設白岡車站之碑』",
  "lat": 36.0176311,
  "lng": 139.66627929999999,
  "address": "埼玉県白岡市小久喜１１６０−１１",
  "access": "白岡駅西口出てすぐ",
  "categories": [
   "商業施設",
   "広場・通り",
   "駅前"
  ],
  "image": "https://www.memorial-object.jp/wp-content/uploads/2025/12/00033_shiraokaeki2.png",
  "url": "https://www.memorial-object.jp/00033_shiraokaeki/"
 },
 {
  "name": "『日本三体之一　村松山虚空蔵尊』",
  "lat": 36.4650241,
  "lng": 140.5663525,
  "address": "茨城県那珂郡東海村舟石川駅東１丁目１−１",
  "access": "東海駅東口出てすぐ",
  "categories": [
   "駅前"
  ],
  "image": "https://www.memorial-object.jp/wp-content/uploads/2026/06/00098_1.png",
  "url": "https://www.memorial-object.jp/00098/"
 },
 {
  "name": "『昇龍』",
  "lat": 35.729320998285765,
  "lng": 139.77033326959346,
  "address": "東京都荒川区西日暮里２丁目２４",
  "access": "日暮里駅北口徒歩２分（ペデストリアンデッキ下）",
  "categories": [
   "商業施設",
   "広場・通り",
   "駅前"
  ],
  "image": "https://www.memorial-object.jp/wp-content/uploads/2026/02/00056_syoryu5-1024x683.png",
  "url": "https://www.memorial-object.jp/00056_syoryu/"
 },
 {
  "name": "『明治百年記念』",
  "lat": 36.27337799827515,
  "lng": 139.1050592695966,
  "address": "群馬県高崎市新町新町駅",
  "access": "新町駅出てすぐ（ロータリー内）",
  "categories": [
   "駅前"
  ],
  "image": "https://www.memorial-object.jp/wp-content/uploads/2025/12/00022_meiji100shinmachi8.png",
  "url": "https://www.memorial-object.jp/00022_meiji100shinmachi/"
 },
 {
  "name": "『望郷の碑』",
  "lat": 35.671792499999995,
  "lng": 138.74291,
  "address": "山梨県甲州市勝沼町菱山３０６０",
  "access": "勝沼ぶどう郷駅西口出てすぐ",
  "categories": [
   "駅前"
  ],
  "image": "https://www.memorial-object.jp/wp-content/uploads/2026/07/00133_1.png",
  "url": "https://www.memorial-object.jp/00133/"
 },
 {
  "name": "『東京都民平和アピール』",
  "lat": 35.6985841,
  "lng": 139.41347299999998,
  "address": "東京都立川市曙町２丁目１−１",
  "access": "立川駅北下出てすぐ",
  "categories": [
   "公園",
   "駅前"
  ],
  "image": "https://www.memorial-object.jp/wp-content/uploads/2026/06/00125_1.png",
  "url": "https://www.memorial-object.jp/00125/"
 },
 {
  "name": "『森山欽司先生胸像』",
  "lat": 36.55928004396182,
  "lng": 139.89794019721612,
  "address": "栃木県宇都宮市川向町１ JR 宇都宮駅",
  "access": "宇都宮駅西口出てすぐ（ペデストリアンデッキ上）",
  "categories": [
   "駅前"
  ],
  "image": "https://www.memorial-object.jp/wp-content/uploads/2026/01/00049_moriyamakinji2.png",
  "url": "https://www.memorial-object.jp/00049_moriyamakinji/"
 },
 {
  "name": "『水戸の納豆記念碑』",
  "lat": 36.369809,
  "lng": 140.47581119999998,
  "address": "茨城県水戸市宮町１丁目７−４４",
  "access": "水戸駅南上出てすぐ",
  "categories": [
   "駅前"
  ],
  "image": "https://www.memorial-object.jp/wp-content/uploads/2026/05/00091_1.png",
  "url": "https://www.memorial-object.jp/00091/"
 },
 {
  "name": "『沼田の歌』",
  "lat": 36.642598998268284,
  "lng": 139.0343942695963,
  "address": "群馬県沼田市薄根町４４６２−４",
  "access": "沼田駅徒歩３分",
  "categories": [
   "公園",
   "駅前"
  ],
  "image": "https://www.memorial-object.jp/wp-content/uploads/2025/12/00030_numatanouta2.png",
  "url": "https://www.memorial-object.jp/00030_numatanouta/"
 },
 {
  "name": "『泉の広場　〜「酒島（さけしま）の霊泉」より第四場面～』",
  "lat": 36.007885534279126,
  "lng": 140.1579098173982,
  "address": "茨城県牛久市ひたち野西３丁目",
  "access": "ひたち野うしく駅西口出てすぐ",
  "categories": [
   "駅前"
  ],
  "image": "https://www.memorial-object.jp/wp-content/uploads/2026/03/00073_sakeshima4-7.png",
  "url": "https://www.memorial-object.jp/00073_sakeshima4/"
 },
 {
  "name": "『片岡駅90周年の歌碑』",
  "lat": 36.754454998266255,
  "lng": 139.94558926959667,
  "address": "栃木県矢板市片岡",
  "access": "片岡駅出てすぐ（ロータリー内）",
  "categories": [
   "駅前"
  ],
  "image": "https://www.memorial-object.jp/wp-content/uploads/2026/02/00052_kataoka90th3.png",
  "url": "https://www.memorial-object.jp/00052_kataoka90th/"
 },
 {
  "name": "『石の詩 POEM OF THE STONE』",
  "lat": 35.6414513,
  "lng": 139.28402169999998,
  "address": "東京都八王子市初沢町",
  "access": "高尾駅南口出てすぐ",
  "categories": [
   "駅前"
  ],
  "image": "https://www.memorial-object.jp/wp-content/uploads/2026/06/00131_1.png",
  "url": "https://www.memorial-object.jp/00131/"
 },
 {
  "name": "『石原裕次郎記念碑』",
  "lat": 35.27278302554984,
  "lng": 139.5691531157886,
  "address": "神奈川県三浦郡葉山町堀内",
  "access": "①京浜急行 逗子・葉山駅南口からバス（逗12）で約13分「森戸神社」バス停徒歩2分",
  "categories": [
   "海浜"
  ],
  "image": "https://www.memorial-object.jp/wp-content/uploads/2025/11/hayama_yuchan4.png",
  "url": "https://www.memorial-object.jp/00018_hayama_yuchan/"
 },
 {
  "name": "『石岡ステーションパークカラクリ時計』",
  "lat": 36.190399709865034,
  "lng": 140.27992082380726,
  "address": "茨城県石岡市石岡２丁目７−５",
  "access": "石岡駅西口徒歩１分（ペデストリアンデッキ上）",
  "categories": [
   "公園",
   "駅前"
  ],
  "image": "https://www.memorial-object.jp/wp-content/uploads/2026/04/00081_karakuri1.png",
  "url": "https://www.memorial-object.jp/00081_karakuri/"
 },
 {
  "name": "『神輿の広場　〜「酒島（さけしま）の霊泉」より第三場面～』",
  "lat": 36.008455524208536,
  "lng": 140.15824310519548,
  "address": "茨城県牛久市ひたち野西３丁目",
  "access": "ひたち野うしく駅西口徒歩１分",
  "categories": [
   "駅前"
  ],
  "image": "https://www.memorial-object.jp/wp-content/uploads/2026/03/00072_sakeshima3-4.png",
  "url": "https://www.memorial-object.jp/00072_sakeshima3/"
 },
 {
  "name": "『空をイメージしたモニュメント』",
  "lat": 36.39546897236518,
  "lng": 139.85239307549165,
  "address": "栃木県下野市医大前３丁目",
  "access": "自治医大駅東口出てすぐ",
  "categories": [
   "駅前"
  ],
  "image": "https://www.memorial-object.jp/wp-content/uploads/2026/01/00046_skymonument1.png",
  "url": "https://www.memorial-object.jp/00046_skymonument/"
 },
 {
  "name": "『笛吹市 日本一桃源郷』",
  "lat": 35.6582086,
  "lng": 138.6357521,
  "address": "山梨県笛吹市石和町松本１６５−５",
  "access": "石和温泉駅北口出てすぐ",
  "categories": [
   "駅前"
  ],
  "image": "https://www.memorial-object.jp/wp-content/uploads/2026/07/00144_1.png",
  "url": "https://www.memorial-object.jp/00144/"
 },
 {
  "name": "『第七十二代横綱　稀勢の里』",
  "lat": 35.975522398240614,
  "lng": 140.1417631944595,
  "address": "茨城県牛久市中央５丁目",
  "access": "牛久駅東口徒歩１分",
  "categories": [
   "広場・通り",
   "駅前"
  ],
  "image": "https://www.memorial-object.jp/wp-content/uploads/2026/03/00068_kisenosato1.png",
  "url": "https://www.memorial-object.jp/00068_kisenosato/"
 },
 {
  "name": "『若山牧水歌碑』",
  "lat": 35.698918299999995,
  "lng": 139.4138166,
  "address": "東京都立川市曙町２丁目４",
  "access": "立川駅北下出てすぐ",
  "categories": [
   "駅前"
  ],
  "image": "https://www.memorial-object.jp/wp-content/uploads/2026/06/00123_1.png",
  "url": "https://www.memorial-object.jp/00123/"
 },
 {
  "name": "『茨城百景 高濱の釣場』",
  "lat": 36.16368124786158,
  "lng": 140.29491007102152,
  "address": "茨城県石岡市北根本",
  "access": "高浜駅出てすぐ",
  "categories": [
   "駅前"
  ],
  "image": "",
  "url": "https://www.memorial-object.jp/00078_takahama/"
 },
 {
  "name": "『赤羽台トンネルの碑』",
  "lat": 35.77827158857958,
  "lng": 139.71570031581675,
  "address": "東京都北区赤羽台１丁目２−４",
  "access": "赤羽駅西口徒歩６分",
  "categories": [
   "住宅地"
  ],
  "image": "https://www.memorial-object.jp/wp-content/uploads/2025/09/akabanedai-tunnel2.png",
  "url": "https://www.memorial-object.jp/akabanedaitunnel_00006/"
 },
 {
  "name": "『道祖神／於曽道祖神の由来』",
  "lat": 35.70498163232106,
  "lng": 138.73388380678884,
  "address": "山梨県甲州市塩山下於曽６７",
  "access": "塩山駅南口出てすぐ",
  "categories": [
   "駅前"
  ],
  "image": "https://www.memorial-object.jp/wp-content/uploads/2026/07/00139_1.png",
  "url": "https://www.memorial-object.jp/00139/"
 },
 {
  "name": "『都道補助133号線開通記念碑』",
  "lat": 35.705230998286254,
  "lng": 139.6358822695934,
  "address": "東京都杉並区阿佐谷南３丁目３６−２",
  "access": "阿佐ヶ谷駅北口付近",
  "categories": [
   "駅前"
  ],
  "image": "https://www.memorial-object.jp/wp-content/uploads/2026/06/00106_1.png",
  "url": "https://www.memorial-object.jp/00106/"
 },
 {
  "name": "『関口専司翁之碑』",
  "lat": 36.415909849894824,
  "lng": 139.03253913778548,
  "address": "群馬県前橋市総社町植野５８２−２",
  "access": "群馬総社駅出てすぐ",
  "categories": [
   "駅前"
  ],
  "image": "https://www.memorial-object.jp/wp-content/uploads/2025/12/00027_sojakokeshi1.png",
  "url": "https://www.memorial-object.jp/00027_soja_kokeshi/"
 },
 {
  "name": "『電気機関車 EF6418』",
  "lat": 35.6716604,
  "lng": 138.74292979999998,
  "address": "山梨県甲州市勝沼町菱山３０６０",
  "access": "勝沼ぶどう郷駅西口出てすぐ",
  "categories": [
   "駅前"
  ],
  "image": "https://www.memorial-object.jp/wp-content/uploads/2026/07/00134_1.png",
  "url": "https://www.memorial-object.jp/00134/"
 },
 {
  "name": "『飛翔』",
  "lat": 35.85850581516036,
  "lng": 139.65632173780276,
  "address": "埼玉県さいたま市浦和区高砂１丁目１１",
  "access": "浦和駅西口徒歩１分（中ノ島バスターミナル内）",
  "categories": [
   "駅前"
  ],
  "image": "https://www.memorial-object.jp/wp-content/uploads/2025/09/urawa-hisyo2.png",
  "url": "https://www.memorial-object.jp/hisyo_00004/"
 },
 {
  "name": "『餃子像』",
  "lat": 36.55918062586767,
  "lng": 139.8977429543125,
  "address": "栃木県宇都宮市川向町１−２３",
  "access": "宇都宮駅西口出てすぐ（ペデストリアンデッキ上）",
  "categories": [
   "駅前"
  ],
  "image": "https://www.memorial-object.jp/wp-content/uploads/2026/01/00048_gyoza2.png",
  "url": "https://www.memorial-object.jp/00048_gyoza/"
 },
 {
  "name": "『鳥のモニュメント』",
  "lat": 35.87225099828289,
  "lng": 140.04007426959393,
  "address": "千葉県我孫子市天王台１丁目２４",
  "access": "天王台駅南口出てすぐ",
  "categories": [
   "公園",
   "駅前"
  ],
  "image": "https://www.memorial-object.jp/wp-content/uploads/2026/02/00061_birds6-1024x675.png",
  "url": "https://www.memorial-object.jp/00061_birds/"
 },
 {
  "name": "『黒磯巻狩鍋』",
  "lat": 36.93194224261972,
  "lng": 140.02008253896486,
  "address": "栃木県那須塩原市沓掛１丁目３−８",
  "access": "那須塩原駅西口出てすぐ",
  "categories": [
   "駅前"
  ],
  "image": "https://www.memorial-object.jp/wp-content/uploads/2026/02/00054_makigari1.png",
  "url": "https://www.memorial-object.jp/00054_makigari/"
 },
 {
  "name": "『（「しほの山」の歌と千鳥）』",
  "lat": 35.68520177048334,
  "lng": 138.68361120722923,
  "address": "山梨県山梨市万力２０１４",
  "access": "山梨市駅北口出てすぐ",
  "categories": [
   "駅前"
  ],
  "image": "https://www.memorial-object.jp/wp-content/uploads/2026/07/00140_1.png",
  "url": "https://www.memorial-object.jp/00140/"
 },
 {
  "name": "『（図形状のモニュメント）』",
  "lat": 35.70579399828622,
  "lng": 139.64962526959343,
  "address": "東京都杉並区",
  "access": "高円寺駅北口付近",
  "categories": [
   "駅前"
  ],
  "image": "https://www.memorial-object.jp/wp-content/uploads/2026/06/00104_1.png",
  "url": "https://www.memorial-object.jp/00104/"
 },
 {
  "name": "『（窪田空穂歌碑）』",
  "lat": 35.7104491,
  "lng": 138.4512522,
  "address": "山梨県韮崎市若宮１丁目１−１",
  "access": "韮崎駅付近",
  "categories": [
   "駅前"
  ],
  "image": "https://www.memorial-object.jp/wp-content/uploads/2026/07/00154_1.png",
  "url": "https://www.memorial-object.jp/00154/"
 },
 {
  "name": "『（親水モニュメント）』",
  "lat": 35.70445684897951,
  "lng": 139.63609191257467,
  "address": "東京都杉並区阿佐谷南３丁目３６−２",
  "access": "阿佐ヶ谷駅南口付近",
  "categories": [
   "公園",
   "駅前"
  ],
  "image": "https://www.memorial-object.jp/wp-content/uploads/2026/06/00107_1.png",
  "url": "https://www.memorial-object.jp/00107/"
 },
 {
  "name": "『２羽の白鳥』",
  "lat": 35.92983433236545,
  "lng": 140.1388078251942,
  "address": "茨城県龍ケ崎市佐貫１丁目",
  "access": "JR龍ヶ崎市駅東口・関東鉄道竜ヶ崎線佐貫駅出てすぐ",
  "categories": [
   "駅前"
  ],
  "image": "https://www.memorial-object.jp/wp-content/uploads/2026/03/00065_swan6.png",
  "url": "https://www.memorial-object.jp/00065_swan/"
 },
 {
  "name": "【かつて存在】井上麦『ウー』",
  "lat": 35.70513706421909,
  "lng": 138.73370906246956,
  "address": "山梨県甲州市塩山上於曽",
  "access": "塩山駅南口付近",
  "categories": [
   "駅前"
  ],
  "image": "https://www.memorial-object.jp/wp-content/uploads/2026/07/00138_1.png",
  "url": "https://www.memorial-object.jp/00138/"
 },
 {
  "name": "【かつて存在】堤達男『泉の愛』",
  "lat": 36.114065998278164,
  "lng": 139.43187126959614,
  "address": "埼玉県行田市壱里山町",
  "access": "行田駅東口出てすぐ（※2025年現在は同所に現存せず）",
  "categories": [
   "駅前"
  ],
  "image": "https://www.memorial-object.jp/wp-content/uploads/2025/11/gyoda_izuminoai5.png",
  "url": "https://www.memorial-object.jp/00016_izuminoai/"
 },
 {
  "name": "やなせたかし『浦和うなこちゃん』",
  "lat": 35.858762304305245,
  "lng": 139.65606936304772,
  "address": "埼玉県さいたま市浦和区高砂１丁目１５",
  "access": "浦和駅西口徒歩１分",
  "categories": [
   "駅前"
  ],
  "image": "",
  "url": "https://www.memorial-object.jp/urawaunakochan_00002/"
 },
 {
  "name": "一色邦彦『彩湖』",
  "lat": 36.07799099827885,
  "lng": 140.2047532695946,
  "address": "茨城県土浦市有明町１",
  "access": "土浦駅西口出てすぐ",
  "categories": [
   "広場・通り",
   "駅前"
  ],
  "image": "https://www.memorial-object.jp/wp-content/uploads/2026/04/00076_saiko5.png",
  "url": "https://www.memorial-object.jp/00076_saiko/"
 },
 {
  "name": "三木俊治『グリーン グリーン ハーモニィー』",
  "lat": 35.6792468,
  "lng": 139.3934414,
  "address": "東京都日野市大坂上１丁目",
  "access": "日野駅西口出てすぐ",
  "categories": [
   "駅前"
  ],
  "image": "https://www.memorial-object.jp/wp-content/uploads/2026/06/00127_1.png",
  "url": "https://www.memorial-object.jp/00127/"
 },
 {
  "name": "三木俊治『行列 – SPACE SHIP EARTH NAVIGATORS -』",
  "lat": 35.698806100000006,
  "lng": 139.4130269,
  "address": "東京都立川市曙町２丁目４",
  "access": "立川駅北上出てすぐ",
  "categories": [
   "広場・通り",
   "駅前"
  ],
  "image": "https://www.memorial-object.jp/wp-content/uploads/2026/06/00118_1.png",
  "url": "https://www.memorial-object.jp/00118/"
 },
 {
  "name": "上條喬久『SURFACE INTERFACE　石と空間のINTERFASE』",
  "lat": 36.29524599827473,
  "lng": 140.27630626959524,
  "address": "茨城県笠間市下郷",
  "access": "岩間駅東口出てすぐ",
  "categories": [
   "公園",
   "駅前"
  ],
  "image": "https://www.memorial-object.jp/wp-content/uploads/2026/04/00082_surface-interface1-1024x676.png",
  "url": "https://www.memorial-object.jp/00082_surface-interface/"
 },
 {
  "name": "中村 喜平『蛇がまいたの像』",
  "lat": 36.25801672569218,
  "lng": 139.76074173545945,
  "address": "栃木県小山市乙女３丁目１５",
  "access": "間々田駅西口出てすぐ（ロータリー内）",
  "categories": [
   "駅前"
  ],
  "image": "https://www.memorial-object.jp/wp-content/uploads/2026/01/00041_jagamaita11.png",
  "url": "https://www.memorial-object.jp/00041_jagamaita/"
 },
 {
  "name": "井上公雄『いのち賛歌』",
  "lat": 35.6573341,
  "lng": 138.6346259,
  "address": "山梨県笛吹市石和町駅前",
  "access": "石和温泉駅南口出てすぐ",
  "categories": [
   "駅前"
  ],
  "image": "https://www.memorial-object.jp/wp-content/uploads/2026/07/00146_1.png",
  "url": "https://www.memorial-object.jp/00146/"
 },
 {
  "name": "井上公雄『想』",
  "lat": 35.65724915599395,
  "lng": 138.63363412342173,
  "address": "山梨県笛吹市石和町松本",
  "access": "石和温泉駅南口付近",
  "categories": [
   "駅前"
  ],
  "image": "https://www.memorial-object.jp/wp-content/uploads/2026/07/00149_1.png",
  "url": "https://www.memorial-object.jp/00149/"
 },
 {
  "name": "井上公雄『風』",
  "lat": 35.65727328806273,
  "lng": 138.63435736070346,
  "address": "山梨県笛吹市石和町松本",
  "access": "石和温泉駅南口付近",
  "categories": [
   "駅前"
  ],
  "image": "https://www.memorial-object.jp/wp-content/uploads/2026/07/00150_1.png",
  "url": "https://www.memorial-object.jp/00150/"
 },
 {
  "name": "井上公雄『（経緯度表記つきモニュメント）』",
  "lat": 35.657307998287166,
  "lng": 138.63463726959324,
  "address": "山梨県笛吹市石和町松本",
  "access": "石和温泉駅南口付近",
  "categories": [
   "駅前"
  ],
  "image": "https://www.memorial-object.jp/wp-content/uploads/2026/07/00145_1.png",
  "url": "https://www.memorial-object.jp/00145/"
 },
 {
  "name": "住谷正巳『人と広場』",
  "lat": 35.698774199999995,
  "lng": 139.4141526,
  "address": "東京都立川市曙町２丁目１３",
  "access": "立川駅北下出てすぐ",
  "categories": [
   "駅前"
  ],
  "image": "https://www.memorial-object.jp/wp-content/uploads/2026/06/00124_1.png",
  "url": "https://www.memorial-object.jp/00124/"
 },
 {
  "name": "北原白秋歌碑",
  "lat": 35.7105163,
  "lng": 138.4512014,
  "address": "山梨県韮崎市若宮１丁目１−１",
  "access": "韮崎駅付近",
  "categories": [
   "駅前"
  ],
  "image": "https://www.memorial-object.jp/wp-content/uploads/2026/07/00153_1.png",
  "url": "https://www.memorial-object.jp/00153/"
 },
 {
  "name": "北村西望『夢』",
  "lat": 36.19483606067687,
  "lng": 139.7095068871524,
  "address": "茨城県古河市本町１丁目１",
  "access": "古河駅東口出てすぐ",
  "categories": [
   "駅前"
  ],
  "image": "https://www.memorial-object.jp/wp-content/uploads/2026/01/00039_yume2.png",
  "url": "https://www.memorial-object.jp/00039_yume/"
 },
 {
  "name": "北村西望『熊谷之次郎直實』",
  "lat": 36.14037466592598,
  "lng": 139.38927223753834,
  "address": "埼玉県熊谷市筑波２丁目",
  "access": "熊谷駅北口出てすぐ（ロータリー内）",
  "categories": [
   "公園",
   "駅前"
  ],
  "image": "https://www.memorial-object.jp/wp-content/uploads/2025/11/kumagaya_naozane6.png",
  "url": "https://www.memorial-object.jp/00019_kumagainaozane/"
 },
 {
  "name": "千本木 康亘『水と緑とロマンの里』",
  "lat": 36.678946998267605,
  "lng": 138.99914226959646,
  "address": "群馬県利根郡みなかみ町後閑３１１",
  "access": "後閑駅徒歩１分",
  "categories": [
   "駅前"
  ],
  "image": "https://www.memorial-object.jp/wp-content/uploads/2025/12/00031_gokan7.png",
  "url": "https://www.memorial-object.jp/00031_gokan/"
 },
 {
  "name": "向井勝實『絆』",
  "lat": 35.6991526438164,
  "lng": 139.41359264081407,
  "address": "東京都立川市曙町２丁目１４−３３",
  "access": "立川駅北上出てすぐ",
  "categories": [
   "駅前"
  ],
  "image": "https://www.memorial-object.jp/wp-content/uploads/2026/06/00122_1.png",
  "url": "https://www.memorial-object.jp/00122/"
 },
 {
  "name": "喜多敏勝『武田信玄公之像』",
  "lat": 35.7057499,
  "lng": 138.7346364,
  "address": "山梨県甲州市塩山上於曽",
  "access": "塩山駅北口出てすぐ",
  "categories": [
   "駅前"
  ],
  "image": "https://www.memorial-object.jp/wp-content/uploads/2026/07/00136_1.png",
  "url": "https://www.memorial-object.jp/00136/"
 },
 {
  "name": "国木田独歩『獨歩詩碑』",
  "lat": 35.70311499828629,
  "lng": 139.56032626959336,
  "address": "東京都三鷹市下連雀３丁目４６−１",
  "access": "三鷹駅北口付近",
  "categories": [
   "駅前"
  ],
  "image": "https://www.memorial-object.jp/wp-content/uploads/2026/06/00112_1.png",
  "url": "https://www.memorial-object.jp/00112/"
 },
 {
  "name": "堀川恭『晨「あした」』",
  "lat": 35.97555511362245,
  "lng": 140.14054583179492,
  "address": "茨城県牛久市牛久町",
  "access": "牛久駅西口出てすぐ（ペデストリアンデッキ上）",
  "categories": [
   "公園",
   "商業施設",
   "広場・通り",
   "駅前"
  ],
  "image": "https://www.memorial-object.jp/wp-content/uploads/2026/03/00066_ashita3.png",
  "url": "https://www.memorial-object.jp/00066_ashita/"
 },
 {
  "name": "大栗克博『甲塚古墳出土馬型埴輪像』",
  "lat": 36.395375972365215,
  "lng": 139.85145107549158,
  "address": "栃木県下野市医大前",
  "access": "自治医大駅西口出てすぐ",
  "categories": [
   "駅前"
  ],
  "image": "https://www.memorial-object.jp/wp-content/uploads/2026/01/00045_haniwa1.png",
  "url": "https://www.memorial-object.jp/00045_haniwa/"
 },
 {
  "name": "宮田亮平『シュプリンゲン』",
  "lat": 35.89172453262964,
  "lng": 140.0647904143582,
  "address": "茨城県取手市取手３丁目１−１",
  "access": "JR取手駅東口出てすぐ",
  "categories": [
   "駅前"
  ],
  "image": "https://www.memorial-object.jp/wp-content/uploads/2026/03/00064_springen3.png",
  "url": "https://www.memorial-object.jp/00064_springen/"
 },
 {
  "name": "宮田亮平『幸福のだるま』",
  "lat": 36.322349853033195,
  "lng": 139.01130861977387,
  "address": "群馬県高崎市八島町高崎駅",
  "access": "高崎駅2F西口付近（モントレー側）",
  "categories": [
   "駅前"
  ],
  "image": "https://www.memorial-object.jp/wp-content/uploads/2025/12/00024_happydaruma6.png",
  "url": "https://www.memorial-object.jp/00024_happydaruma/"
 },
 {
  "name": "小川正子歌碑",
  "lat": 35.673846224486915,
  "lng": 138.65907645600788,
  "address": "山梨県笛吹市春日居町別田",
  "access": "春日居町駅北口付近",
  "categories": [
   "駅前"
  ],
  "image": "https://www.memorial-object.jp/wp-content/uploads/2026/07/00142_1.png",
  "url": "https://www.memorial-object.jp/00142/"
 },
 {
  "name": "小張隆男『風』",
  "lat": 36.07771738975593,
  "lng": 140.20681419513997,
  "address": "茨城県土浦市港町１丁目３−１７",
  "access": "土浦駅東口徒歩１分",
  "categories": [
   "駅前"
  ],
  "image": "https://www.memorial-object.jp/wp-content/uploads/2026/04/00077_kaze4.png",
  "url": "https://www.memorial-object.jp/00077_kaze/"
 },
 {
  "name": "小森邦夫『であい』",
  "lat": 36.3946676,
  "lng": 140.52480509999998,
  "address": "茨城県ひたちなか市勝田中央１",
  "access": "勝田駅東口出てすぐ",
  "categories": [
   "駅前"
  ],
  "image": "https://www.memorial-object.jp/wp-content/uploads/2026/06/00094_1.png",
  "url": "https://www.memorial-object.jp/00094/"
 },
 {
  "name": "小森邦夫『水戸黄門　助さん格さん像』",
  "lat": 36.3715368,
  "lng": 140.4763221,
  "address": "茨城県水戸市三の丸１丁目１−３",
  "access": "水戸駅北上出てすぐ",
  "categories": [
   "駅前"
  ],
  "image": "https://www.memorial-object.jp/wp-content/uploads/2026/06/00092_1.png",
  "url": "https://www.memorial-object.jp/00092/"
 },
 {
  "name": "小畠廣志『花乃精』",
  "lat": 35.702669199999995,
  "lng": 139.5793254,
  "address": "東京都武蔵野市吉祥寺南町１丁目４",
  "access": "吉祥寺駅南口出てすぐ",
  "categories": [
   "駅前"
  ],
  "image": "https://www.memorial-object.jp/wp-content/uploads/2026/06/00110_1-300x251.png",
  "url": "https://www.memorial-object.jp/00111/"
 },
 {
  "name": "山本衛士『風の塔／高円寺駅南口広場 防災モニュメント』",
  "lat": 35.7050187,
  "lng": 139.6498109,
  "address": "東京都杉並区高円寺南４丁目４６",
  "access": "高円寺駅南口出てすぐ",
  "categories": [
   "広場・通り",
   "駅前"
  ],
  "image": "https://www.memorial-object.jp/wp-content/uploads/2026/06/00105_1.png",
  "url": "https://www.memorial-object.jp/00105/"
 },
 {
  "name": "川崎普照『未来への讃歌』",
  "lat": 35.7781383458597,
  "lng": 139.71996076683087,
  "address": "東京都北区赤羽西１丁目６",
  "access": "赤羽駅西口出てすぐ",
  "categories": [
   "駅前"
  ],
  "image": "https://www.memorial-object.jp/wp-content/uploads/2025/08/akabane-miraihenosanka2-1024x683.jpg",
  "url": "https://www.memorial-object.jp/miraihenosanka_00001/"
 },
 {
  "name": "平塚正義『和 -NAGOMI-』",
  "lat": 35.8968199,
  "lng": 140.06268141856773,
  "address": "茨城県取手市中央町２",
  "access": "JR取手駅西口徒歩１分",
  "categories": [
   "駅前"
  ],
  "image": "https://www.memorial-object.jp/wp-content/uploads/2026/02/00062_nagomi1.png",
  "url": "https://www.memorial-object.jp/00062_nagomi/"
 },
 {
  "name": "平田壽一『みんなのタロー』",
  "lat": 36.190652762961705,
  "lng": 140.2797375244765,
  "address": "茨城県石岡市国府１丁目１",
  "access": "石岡駅西口出てすぐ",
  "categories": [
   "駅前"
  ],
  "image": "https://www.memorial-object.jp/wp-content/uploads/2026/04/00079_taro1-1024x679.png",
  "url": "https://www.memorial-object.jp/00079_taro/"
 },
 {
  "name": "平野千里『松尾芭蕉　奥の細道　矢立初めの地』",
  "lat": 35.73317548974298,
  "lng": 139.79845383187168,
  "address": "東京都荒川区南千住４丁目５",
  "access": "南千住駅西口出てすぐ",
  "categories": [
   "駅前"
  ],
  "image": "https://www.memorial-object.jp/wp-content/uploads/2026/02/00059_basyo1.png",
  "url": "https://www.memorial-object.jp/00059_basyo/"
 },
 {
  "name": "建畠覚造『光』",
  "lat": 36.13698399827774,
  "lng": 139.69389726959471,
  "address": "埼玉県久喜市栗橋北１丁目１",
  "access": "栗橋駅東口出てすぐ",
  "categories": [
   "駅前"
  ],
  "image": "https://www.memorial-object.jp/wp-content/uploads/2026/01/00038_hikari6.png",
  "url": "https://www.memorial-object.jp/00038_hikari/"
 },
 {
  "name": "建畠覚造『飛翔　ふれあいと参加　平和』",
  "lat": 35.905899298282264,
  "lng": 139.62184406959545,
  "address": "埼玉県さいたま市大宮区錦町",
  "access": "大宮駅西口徒歩１分（ペデストリアンデッキ上）",
  "categories": [
   "駅前"
  ],
  "image": "https://www.memorial-object.jp/wp-content/uploads/2025/10/omiya_hisyo1.png",
  "url": "https://www.memorial-object.jp/hisyo-fureai-heiwa_00008/"
 },
 {
  "name": "彗星をイメージしたモニュメント",
  "lat": 36.23578019188965,
  "lng": 139.18795235179576,
  "address": "埼玉県本庄市駅南２丁目１",
  "access": "本庄駅南口出てすぐ（ロータリー内）",
  "categories": [
   "駅前"
  ],
  "image": "https://www.memorial-object.jp/wp-content/uploads/2025/12/00021_honjo_comet4.png",
  "url": "https://www.memorial-object.jp/00021_honjo_comet/"
 },
 {
  "name": "後藤末吉『樂』",
  "lat": 36.382578699999996,
  "lng": 140.4153897,
  "address": "茨城県水戸市赤塚１丁目",
  "access": "赤塚駅北口出てすぐ",
  "categories": [
   "駅前"
  ],
  "image": "https://www.memorial-object.jp/wp-content/uploads/2026/05/00090_1.png",
  "url": "https://www.memorial-object.jp/00090/"
 },
 {
  "name": "御正進『ドナウの調べ』",
  "lat": 35.733758631535636,
  "lng": 139.79989436477646,
  "address": "東京都荒川区南千住４丁目１−１",
  "access": "JR南千住駅東口徒歩３分",
  "categories": [
   "駅前"
  ],
  "image": "https://www.memorial-object.jp/wp-content/uploads/2026/02/00060_donau5.png",
  "url": "https://www.memorial-object.jp/00060_donau/"
 },
 {
  "name": "手塚登久夫『梟家族』",
  "lat": 35.89634329368244,
  "lng": 140.06259096100933,
  "address": "茨城県取手市中央町２",
  "access": "JR取手駅西口出てすぐ",
  "categories": [
   "駅前"
  ],
  "image": "https://www.memorial-object.jp/wp-content/uploads/2026/03/00063_owl1.png",
  "url": "https://www.memorial-object.jp/00063_owl/"
 },
 {
  "name": "新宮晋『平和の鐘』",
  "lat": 36.591241499999995,
  "lng": 140.661137,
  "address": "茨城県日立市幸町１丁目２",
  "access": "日立駅西口出てすぐ",
  "categories": [
   "駅前"
  ],
  "image": "https://www.memorial-object.jp/wp-content/uploads/2026/06/00100_1-300x199.png",
  "url": "https://www.memorial-object.jp/00100/"
 },
 {
  "name": "日原公大『与一公祈願像「いのり」』",
  "lat": 36.84395375657216,
  "lng": 139.95724253084717,
  "address": "栃木県大田原市野崎２丁目９−９−２２３３",
  "access": "野崎駅出てすぐ",
  "categories": [
   "駅前"
  ],
  "image": "https://www.memorial-object.jp/wp-content/uploads/2026/02/00053_inori4.png",
  "url": "https://www.memorial-object.jp/00053_inori/"
 },
 {
  "name": "日立製作所（贈）『タービン動翼』",
  "lat": 36.5920689,
  "lng": 140.66127079999998,
  "address": "茨城県日立市平和町１丁目１",
  "access": "日立駅西口出てすぐ",
  "categories": [
   "駅前"
  ],
  "image": "https://www.memorial-object.jp/wp-content/uploads/2026/06/00102_1-300x206.png",
  "url": "https://www.memorial-object.jp/00102/"
 },
 {
  "name": "星野健司『ライダー・トリックスター』",
  "lat": 36.4651012,
  "lng": 140.5661629,
  "address": "茨城県那珂郡東海村舟石川駅東１丁目１−１",
  "access": "東海駅東口出てすぐ",
  "categories": [
   "駅前"
  ],
  "image": "https://www.memorial-object.jp/wp-content/uploads/2026/06/00097_1.png",
  "url": "https://www.memorial-object.jp/00097/"
 },
 {
  "name": "木内充『エーゲ海に捧ぐ』",
  "lat": 36.4647185,
  "lng": 140.5660934,
  "address": "茨城県那珂郡東海村舟石川駅東１丁目１",
  "access": "東海駅東口出てすぐ",
  "categories": [
   "駅前"
  ],
  "image": "https://www.memorial-object.jp/wp-content/uploads/2026/06/00099_1.png",
  "url": "https://www.memorial-object.jp/00099/"
 },
 {
  "name": "木村博昌『平和』",
  "lat": 35.97396453532514,
  "lng": 139.58930092271208,
  "address": "埼玉県上尾市宮本町３−１",
  "access": "上尾駅東口徒歩１分",
  "categories": [
   "駅前"
  ],
  "image": "https://www.memorial-object.jp/wp-content/uploads/2025/11/ageo_heiwa1.png",
  "url": "https://www.memorial-object.jp/heiwa_00010/"
 },
 {
  "name": "木村博昌『躍動』",
  "lat": 35.973622922857125,
  "lng": 139.5894812932864,
  "address": "埼玉県上尾市宮本町１",
  "access": "上尾駅東口徒歩１分",
  "categories": [
   "駅前"
  ],
  "image": "https://www.memorial-object.jp/wp-content/uploads/2025/11/ageo_yakudo2.png",
  "url": "https://www.memorial-object.jp/yakudo_00009/"
 },
 {
  "name": "本多 正直『SEED OF PEACE』",
  "lat": 36.08915799827866,
  "lng": 139.6798372695946,
  "address": "埼玉県久喜市桜田３丁目１−３",
  "access": "東鷲宮駅東口徒歩２分",
  "categories": [
   "公園",
   "駅前"
  ],
  "image": "https://www.memorial-object.jp/wp-content/uploads/2026/01/00037_seedofpeace1.png",
  "url": "https://www.memorial-object.jp/00037_seedofpeace/"
 },
 {
  "name": "杉山功『メイドン・ボエジ（MAIDEN VOYAGE）』",
  "lat": 35.65636632399629,
  "lng": 139.31278145268726,
  "address": "東京都八王子市千人町２丁目２１",
  "access": "西八王子駅南口付近",
  "categories": [
   "駅前"
  ],
  "image": "https://www.memorial-object.jp/wp-content/uploads/2026/06/00130_1.png",
  "url": "https://www.memorial-object.jp/00130/"
 },
 {
  "name": "松田光司『歓喜の時』",
  "lat": 36.5978689982691,
  "lng": 139.94363126959615,
  "address": "栃木県宇都宮市下岡本町",
  "access": "岡本駅東口徒歩１分",
  "categories": [
   "駅前"
  ],
  "image": "https://www.memorial-object.jp/wp-content/uploads/2026/02/00051_kanki1.png",
  "url": "https://www.memorial-object.jp/00051_kanki/"
 },
 {
  "name": "松阪節三『かがやき』",
  "lat": 35.707449499999996,
  "lng": 139.47501459999998,
  "address": "東京都国分寺市東恋ケ窪２丁目１７−２",
  "access": "国分寺駅南口出てすぐ",
  "categories": [
   "駅前"
  ],
  "image": "https://www.memorial-object.jp/wp-content/uploads/2026/06/00116_1.png",
  "url": "https://www.memorial-object.jp/00116/"
 },
 {
  "name": "桑原 巨守『風と花』",
  "lat": 36.490623090845105,
  "lng": 139.0079660716324,
  "address": "群馬県渋川市渋川辰巳町 駅",
  "access": "渋川駅出てすぐ",
  "categories": [
   "駅前"
  ],
  "image": "https://www.memorial-object.jp/wp-content/uploads/2025/12/00028_kazetohana8.png",
  "url": "https://www.memorial-object.jp/00028_kazetohana/"
 },
 {
  "name": "橋本活道『回天一枝（太田道灌騎馬像）』",
  "lat": 35.728645998285764,
  "lng": 139.7707662695935,
  "address": "東京都荒川区西日暮里２丁目１９",
  "access": "日暮里駅徒歩１分",
  "categories": [
   "駅前"
  ],
  "image": "https://www.memorial-object.jp/wp-content/uploads/2026/02/00057_dokan4-1024x682.png",
  "url": "https://www.memorial-object.jp/00057_dokan/"
 },
 {
  "name": "永井一正『花咲くつぼみ』",
  "lat": 36.3504842,
  "lng": 140.3060536,
  "address": "茨城県笠間市友部駅前１",
  "access": "友部駅北口付近",
  "categories": [
   "駅前"
  ],
  "image": "https://www.memorial-object.jp/wp-content/uploads/2026/05/00084_1.png",
  "url": "https://www.memorial-object.jp/00084/"
 },
 {
  "name": "浦山一雄『BLACK  uniform』",
  "lat": 35.73352399828566,
  "lng": 139.77446926959354,
  "address": "東京都荒川区西日暮里１丁目６（せせらぎの小径）",
  "access": "三河島駅徒歩４分",
  "categories": [
   "商業施設",
   "広場・通り",
   "駅前"
  ],
  "image": "https://www.memorial-object.jp/wp-content/uploads/2026/02/00058_blackuniform8.png",
  "url": "https://www.memorial-object.jp/00059_blackuniform/"
 },
 {
  "name": "渕上由隆『汐彩の美』",
  "lat": 36.07817999827886,
  "lng": 140.20439926959455,
  "address": "茨城県土浦市有明町１",
  "access": "土浦駅西口徒歩１分",
  "categories": [
   "駅前"
  ],
  "image": "https://www.memorial-object.jp/wp-content/uploads/2026/03/00075_shiosai3.png",
  "url": "https://www.memorial-object.jp/00075_shiosai/"
 },
 {
  "name": "滝川毘堂『武者群像』",
  "lat": 35.85850581516036,
  "lng": 139.65632173780276,
  "address": "埼玉県さいたま市浦和区高砂１丁目１１",
  "access": "浦和駅西口徒歩１分（中ノ島バスターミナル内）",
  "categories": [
   "駅前"
  ],
  "image": "https://www.memorial-object.jp/wp-content/uploads/2025/09/image-1-1024x679.png",
  "url": "https://www.memorial-object.jp/musyagunzo_00003/"
 },
 {
  "name": "玉野勢三『おもう』",
  "lat": 35.6575175,
  "lng": 138.6341897,
  "address": "山梨県笛吹市石和町駅前１７",
  "access": "石和温泉駅南口出てすぐ",
  "categories": [
   "駅前"
  ],
  "image": "https://www.memorial-object.jp/wp-content/uploads/2026/07/00148_1.png",
  "url": "https://www.memorial-object.jp/00148/"
 },
 {
  "name": "玉野勢三『かたらい』",
  "lat": 35.6575341,
  "lng": 138.6345183,
  "address": "山梨県笛吹市石和町駅前１８",
  "access": "石和温泉駅南口出てすぐ",
  "categories": [
   "駅前"
  ],
  "image": "https://www.memorial-object.jp/wp-content/uploads/2026/07/00147_1.png",
  "url": "https://www.memorial-object.jp/00147/"
 },
 {
  "name": "田中 昭『澁澤栄一座像』",
  "lat": 36.192007116537006,
  "lng": 139.28167117186746,
  "address": "埼玉県深谷市西島町３丁目７",
  "access": "熊谷駅北口出てすぐ（ロータリー内）",
  "categories": [
   "駅前"
  ],
  "image": "https://www.memorial-object.jp/wp-content/uploads/2025/12/00020_fukaya_shibusawa6.png",
  "url": "https://www.memorial-object.jp/00020_fukaya_shibusawa/"
 },
 {
  "name": "甲府城石垣遺構の復元物",
  "lat": 35.66774251558023,
  "lng": 138.56908891493882,
  "address": "山梨県甲府市丸の内１丁目１",
  "access": "甲府駅北口付近",
  "categories": [
   "駅前"
  ],
  "image": "https://www.memorial-object.jp/wp-content/uploads/2026/07/00151_1.png",
  "url": "https://www.memorial-object.jp/00151/"
 },
 {
  "name": "盛岡公彦『合氣道開祖　植芝盛平翁之像』",
  "lat": 36.2950174,
  "lng": 140.2766692,
  "address": "茨城県笠間市下郷",
  "access": "岩間駅東口出てすぐ",
  "categories": [
   "駅前"
  ],
  "image": "https://www.memorial-object.jp/wp-content/uploads/2026/04/00083_aikido6-1024x686.png",
  "url": "https://www.memorial-object.jp/00083_aikido/"
 },
 {
  "name": "福沢一郎『だるまの詩』",
  "lat": 36.32287335246342,
  "lng": 139.0117974078984,
  "address": "群馬県高崎市八島町２２２ 高崎モントレ １Ｆ",
  "access": "高崎駅1F西口出てすぐ",
  "categories": [
   "公園",
   "駅前"
  ],
  "image": "https://www.memorial-object.jp/wp-content/uploads/2025/12/00025_darumapoem5.png",
  "url": "https://www.memorial-object.jp/00025_darumapoem/"
 },
 {
  "name": "秋山孝『阿吽』",
  "lat": 36.3504842,
  "lng": 140.3060536,
  "address": "茨城県笠間市友部駅前１",
  "access": "友部駅北口付近",
  "categories": [
   "駅前"
  ],
  "image": "https://www.memorial-object.jp/wp-content/uploads/2026/05/00085_1.png",
  "url": "https://www.memorial-object.jp/00085/"
 },
 {
  "name": "秋山孝『頭隠して尻隠さず・頭出して尻隠す』",
  "lat": 36.3504842,
  "lng": 140.3060536,
  "address": "茨城県笠間市友部駅前１",
  "access": "友部駅南口付近",
  "categories": [
   "駅前"
  ],
  "image": "https://www.memorial-object.jp/wp-content/uploads/2026/05/00088_1.png",
  "url": "https://www.memorial-object.jp/00088/"
 },
 {
  "name": "笹戸千津子『足を組む女』",
  "lat": 35.69966450057817,
  "lng": 139.41185765677372,
  "address": "東京都立川市曙町２丁目５",
  "access": "立川北駅付近",
  "categories": [
   "駅前"
  ],
  "image": "https://www.memorial-object.jp/wp-content/uploads/2026/06/00120_1.png",
  "url": "https://www.memorial-object.jp/00120/"
 },
 {
  "name": "緒方良信『水紋 WATER SHAPE』",
  "lat": 35.65695112775919,
  "lng": 139.33862451598105,
  "address": "東京都八王子市旭町1丁目１",
  "access": "八王子駅北下付近",
  "categories": [
   "駅前"
  ],
  "image": "https://www.memorial-object.jp/wp-content/uploads/2026/06/00129_1.png",
  "url": "https://www.memorial-object.jp/00129/"
 },
 {
  "name": "能島征二『愛』",
  "lat": 36.3944787,
  "lng": 140.5242313,
  "address": "茨城県ひたちなか市武田",
  "access": "勝田駅東口付近",
  "categories": [
   "駅前"
  ],
  "image": "https://www.memorial-object.jp/wp-content/uploads/2026/06/00095_1.png",
  "url": "https://www.memorial-object.jp/00095/"
 },
 {
  "name": "能島征二『陽炎』",
  "lat": 36.3944787,
  "lng": 140.5242313,
  "address": "茨城県ひたちなか市武田",
  "access": "勝田駅西口付近",
  "categories": [
   "駅前"
  ],
  "image": "https://www.memorial-object.jp/wp-content/uploads/2026/06/00093_1.png",
  "url": "https://www.memorial-object.jp/00093/"
 },
 {
  "name": "能登 藤𠮷郎『奉仕への道』",
  "lat": 36.64247270249241,
  "lng": 139.03595575656823,
  "address": "群馬県沼田市清水町４３１４",
  "access": "沼田駅徒歩１分",
  "categories": [
   "駅前"
  ],
  "image": "https://www.memorial-object.jp/wp-content/uploads/2025/12/00029_houshitengu9.png",
  "url": "https://www.memorial-object.jp/00029_houshi_tengu/"
 },
 {
  "name": "薮内佐斗司『花の童子』",
  "lat": 35.7035092,
  "lng": 139.6002724,
  "address": "東京都杉並区西荻南３丁目２５−１",
  "access": "西荻窪駅南口出てすぐ",
  "categories": [
   "広場・通り",
   "駅前"
  ],
  "image": "https://www.memorial-object.jp/wp-content/uploads/2026/06/00109_1.png",
  "url": "https://www.memorial-object.jp/00109/"
 },
 {
  "name": "赤川政由『南の風が吹く頃 Bon Voyage!』",
  "lat": 35.69726926583451,
  "lng": 139.4135599358103,
  "address": "東京都立川市曙町２丁目１",
  "access": "立川駅南↑付近",
  "categories": [
   "駅前"
  ],
  "image": "https://www.memorial-object.jp/wp-content/uploads/2026/06/00126_1.png",
  "url": "https://www.memorial-object.jp/00126/"
 },
 {
  "name": "赤川政由『風に向って INTO THE WIND』",
  "lat": 35.69898927858116,
  "lng": 139.41251841610364,
  "address": "東京都立川市曙町２丁目１",
  "access": "立川駅北上付近",
  "categories": [
   "駅前"
  ],
  "image": "https://www.memorial-object.jp/wp-content/uploads/2026/06/00119_1.png",
  "url": "https://www.memorial-object.jp/00119/"
 },
 {
  "name": "髙橋剛『東方の門』",
  "lat": 36.37403799827325,
  "lng": 139.84202826959546,
  "address": "栃木県下野市駅東１丁目１",
  "access": "小金井駅東口徒歩１分",
  "categories": [
   "駅前"
  ],
  "image": "https://www.memorial-object.jp/wp-content/uploads/2026/01/00043_tohonomon9.png",
  "url": "https://www.memorial-object.jp/00043_tohonomon/"
 },
 {
  "name": "齋藤 馨『丘の上  愛・希望』",
  "lat": 36.01758585078422,
  "lng": 139.66700253420018,
  "address": "埼玉県白岡市小久喜白岡駅",
  "access": "白岡駅東口出てすぐ",
  "categories": [
   "駅前"
  ],
  "image": "https://www.memorial-object.jp/wp-content/uploads/2025/12/00034_okanoue2.png",
  "url": "https://www.memorial-object.jp/00034_okanoue/"
 },
 {
  "name": "齋藤 馨『風の見える街』",
  "lat": 36.065858024930975,
  "lng": 139.67689432245092,
  "address": "埼玉県久喜市久喜中央２丁目１",
  "access": "久喜駅西口出てすぐ",
  "categories": [
   "駅前"
  ],
  "image": "https://www.memorial-object.jp/wp-content/uploads/2026/01/00036_kuki-kaze1.png",
  "url": "https://www.memorial-object.jp/00036_kuki-kaze/"
 }
]